Name,Function,Contents,Saturday,Sunday,Monday,Tuesday,Wednesday,Thursday,Friday,Score,NumOfReviews,Indoor/Outdoors,Longitude,Latitude,Image
경복궁,Palace,"Gyeongbokgung, also known as Gyeongbokgung Palace or Gyeongbok Palace, was the main royal palace of the Joseon dynasty. Built in 1395, it is located in northern Seoul, South Korea.",9AM–6PM,9AM–6PM,9AM–6PM,Closed,9AM–6PM,9AM–6PM,9AM–6PM,4.6,10757,Outdoor,37.57737,126.976695,
Hongik University Seoul Campus,사립대학교,,,,,,,,,4.2,127,,126.9228166,37.5514642,Hongik University Seoul Campus.jpg
Myeong-dong,,,,,,,,,,,,,126.9733034,37.5615512,Myeong-dong.jpg
Gyeongbokgung Palace,고궁,"Free guided tours are offered of this large, 14th-century royal palace with a museum & gardens.",9AM–6PM,9AM–6PM,9AM–6PM,Closed,9AM–6PM,9AM–6PM,9AM–6PM,4.6,"12,779",,126.974847,37.579617,Gyeongbokgung Palace.jpg
N Seoul Tower,타워,"Opened in 1980, this iconic tower offers panoramic views of the city & a revolving restaurant.",10AM–12AM,10AM–11PM,10AM–11PM,10AM–11PM,10AM–11PM,10AM–11PM,10AM–11PM,4.4,"16,784",,126.9860326,37.5511694,N Seoul Tower.jpg
Insa-dong,,,,,,,,,,,,,126.9838119,37.5720449,Insa-dong.jpg
Changdeokgung,Palace,Tours are offered of this large Joseon dynasty palace & its surrounding gardens.,9AM–5PM,9AM–5PM,Closed,9AM–5PM,9AM–5PM,9AM–5PM,9AM–5PM,4.6,"3,657",,126.9888087,37.5792907,Changdeokgung.jpg
Bukchon Hanok Village,문화 유산 보존,Village dating to the 14th century filled with narrow streets lined with restored traditional homes.,9AM–5PM,9AM–5PM,9AM–6PM,9AM–6PM,9AM–6PM,9AM–6PM,9AM–6PM,4.3,"4,848",,126.9814591,37.5824075,Bukchon Hanok Village.jpg
Lotte World,Theme Park,"Theme park rides, water flumes & marine life exhibits in a family centred 3-in-1 adventure park.",9:30AM–11PM,Closed,9:30AM–10PM,9:30AM–10PM,9:30AM–10PM,9:30AM–10PM,9:30AM–11PM,4.2,"13,061",,127.0969224,37.5112808,Lotte World.jpg
Namsan Park,공원,,Open 24 hours,Open 24 hours,Open 24 hours,Open 24 hours,Open 24 hours,Open 24 hours,Open 24 hours,4.5,179,,126.9887051,37.5509895,Namsan Park.jpg
Namdaemun Market,시장,"Opened in 1964, this large area of stalls offers clothes, household goods & local items.",,,,,,,,4.1,"7,997",,126.9754752,37.5591786,Namdaemun Market.jpg
Cheonggyecheon,Tourist Attraction,"Recreational area constructed around a revived stream with walkways, bridges & greenery.",Open 24 hours,Open 24 hours,Open 24 hours,Open 24 hours,Open 24 hours,Open 24 hours,Open 24 hours,4.1,"1,301",,127.0224388,37.5713521,Cheonggyecheon.jpg
Deoksugung,Palace,Historic palace in the heart of Seoul offering a popular Changing of the Royal Guard ceremony.,9AM–9PM,9AM–9PM,Closed,9AM–9PM,9AM–9PM,9AM–9PM,9AM–9PM,4.4,"5,077",,126.9701883,37.5664117,Deoksugung.jpg
Dongdaemun Market,Market,,9AM–6PM,Closed,9AM–6PM,9AM–6PM,9AM–6PM,9AM–6PM,9AM–6PM,4.0,"1,276",,127.0014781,37.5693936,Dongdaemun Market.jpg
Gwanghwamun Gate,역사적 명소,"Modern reconstruction of the monumental, triple-arched main entrance gate at Gyeongbokgung Palace.",8AM–5PM,8AM–5PM,8AM–5PM,8AM–5PM,8AM–5PM,8AM–5PM,8AM–5PM,4.5,"4,012",,126.9746217,37.5759369,Gwanghwamun Gate.jpg
Sungnyemun Gate,Historical Landmark,"Restored 1300s fortress wall & pedestrian gate with a raised, pagoda-style roof & stone archway.",9AM–6PM,9AM–6PM,Closed,9AM–6PM,9AM–6PM,9AM–6PM,9AM–6PM,4.3,"2,606",,126.9741131,37.5600716,Sungnyemun Gate.jpg
Changgyeonggung Palace,Palace,"Complex of 4 grand traditional Korean palaces, shrines & gardens for guided & self guided tours.",9AM–5:30PM,9AM–5:30PM,Closed,9AM–5:30PM,9AM–5:30PM,9AM–5:30PM,9AM–5:30PM,4.5,879,,126.9907223,37.5791008,Changgyeonggung Palace.jpg
Jongmyo Shrine,성지,Ritual ceremonies still take place at this Confucian shrine dedicated to Joseon dynasty royals.,,,,,,,,4.5,237,,126.991949,37.574583,Jongmyo Shrine.jpg
The National Folk Museum of Korea,박물관,"National museum celebrating the history, culture & lives of Korean people, established in 1946.",9AM–7PM,9AM–7PM,9AM–6:30PM,9AM–6:30PM,9AM–6:30PM,9AM–6:30PM,9AM–6:30PM,4.4,626,,126.9768008,37.5816456,The National Folk Museum of Korea.jpg
Blue House,Government Office,This complex features the executive office & official residence of South Korea's president.,,,,,,,,3.4,455,,126.9702079,37.5816452,Blue House.jpg
Gwanghwamun Square,대광장,,Open 24 hours,Open 24 hours,Open 24 hours,Open 24 hours,Open 24 hours,Open 24 hours,Open 24 hours,4.4,"1,927",,126.974581,37.5740339,Gwanghwamun Square.jpg
Bukhansan National Park,National Park,,4AM–5PM,4AM–5PM,4AM–5PM,4AM–5PM,4AM–5PM,4AM–5PM,4AM–5PM,4.5,401,,126.9567363,37.6693702,Bukhansan National Park.jpg
Banpo Bridge,Bridge,Two-tiered traffic bridge with a 380-jet water fountain colorfully illuminated at night.,,,,,,,,4.3,346,,126.9610508,37.5156865,Banpo Bridge.jpg
Dongdaemun Design Plaza,문화센터,"Architectural-landmark events venue with futuristic design, a design market & food vendors.",10AM–9PM,10AM–7PM,Closed,10AM–7PM,10AM–7PM,10AM–7PM,10AM–9PM,4.3,"8,501",,127.007312,37.566725,Dongdaemun Design Plaza.jpg
Heunginjimun,Historical Landmark,This restored gate was part of the Fortress Wall of Seoul built during the Joseon Dynasty.,,,,,,,,4.1,"1,075",,127.0007191,37.5667246,Heunginjimun.jpg
National Museum of Korea,박물관,Major building opened in 2005 to house the country's of cultural & military artifacts & artworks.,10AM–9PM,10AM–7PM,10AM–6PM,10AM–6PM,10AM–9PM,10AM–6PM,10AM–6PM,4.6,"5,788",,126.9782762,37.5238506,National Museum of Korea.jpg
63 Building,타워,"Ultramodern 63-story tower with an IMAX cinema, a marine park & a sky deck with city views.",,,,,,,,4.1,"2,605",,126.9380163,37.5193776,63 Building.jpg
Seoul Grand Park,Theme Park,"Nearly 3,000 animals live in the zoos at this attraction with rose garden, art museum & theme park.",,,,,,,,4.3,"3,958",,127.0029734,37.431624,Seoul Grand Park.jpg
War Memorial of Korea,전쟁 박물관,"Museum charting Korea's conflicts with exhibition rooms, monuments & an outdoor vehicle display.",,,,,,,,4.5,"6,163",,126.9749457,37.5366059,War Memorial of Korea.jpg
Seoul Forest,공원,"Vast, tree-filled park featuring a lake, bike path & roses, plus deer to feed & a butterfly house.",Open 24 hours,Open 24 hours,Open 24 hours,Open 24 hours,Open 24 hours,Open 24 hours,Open 24 hours,4.5,"1,814",,127.0362841,37.5450111,Seoul Forest.jpg
Bongeunsa,불교사찰,Traditional Korean Buddhist temple complex with a 23 m Maitreya Buddha statue.,,,,,,,,4.6,367,,127.0551826,37.514852,Bongeunsa.jpg
Jogyesa,불교사찰,Main temple for Jogye Korean Buddhism with a large main hall & 7-story pagoda on site.,,,,,,,,4.3,319,,126.9804558,37.5743716,Jogyesa.jpg
Olympic Park,공원,"Site of Seoul 1988 Olympics with nearly a square mile of green space, sculptures & sports venues.",,,,,,,,4.6,854,,127.1193001,37.5206868,Olympic Park.jpg
Namhansanseong World Heritage Centre,Tourist Attraction,,9AM–5PM,9AM–5PM,9AM–5PM,9AM–5PM,9AM–5PM,9AM–5PM,9AM–5PM,4.2,298,,127.1843729,37.4790366,Namhansanseong World Heritage Centre.jpg
Seoul Land,놀이공원,"Opened to coincide with the Olympics, this family attraction is divided into 5 themed zones.",9:30AM–10PM,9:30AM–10PM,9:30AM–10PM,9:30AM–10PM,9:30AM–10PM,9:30AM–10PM,9:30AM–10PM,4.2,"3,128",,127.0179327,37.4341563,Seoul Land.jpg
Seoul Children's Grand Park,Theme Park,"Sizable park with classic rides like a ferris wheel, plus a zoo, playground & grassy seating areas.",5AM–10PM,5AM–10PM,5AM–10PM,5AM–10PM,5AM–10PM,5AM–10PM,5AM–10PM,4.4,"2,973",,127.0699623,37.5483014,Seoul Children's Grand Park.jpg
Inwangsan,산봉우리,,,,,,,,,4.4,54,,126.9417517,37.5849471,Inwangsan.jpg
Gyeonghuigung,고궁,"Palace originally built in the 17th century by the Joseon dynasty, with an adjacent history museum.",9AM–6PM,9AM–6PM,Closed,9AM–6PM,9AM–6PM,9AM–6PM,9AM–6PM,4.2,274,,126.9659748,37.5712378,Gyeonghuigung.jpg
World Cup Park (월드컵공원),공원,,Closed,Closed,8:30AM–6PM,8:30AM–6PM,8:30AM–6PM,8:30AM–6PM,8:30AM–6PM,4.3,236,,126.8951226,37.5639074,World Cup Park (월드컵공원).jpg
Trickeye Museum Seoul,현대미술관,,9AM–9PM,9AM–9PM,9AM–9PM,9AM–9PM,9AM–9PM,9AM–9PM,9AM–9PM,4.2,"1,967",,126.9195323,37.5535655,Trickeye Museum Seoul.jpg
National Palace Museum of Korea,국립박물관,"Exhibits focused on the Joseon Dynasty & royal family, with many artifacts & an audio tour.",9AM–7PM,9AM–7PM,9AM–6PM,9AM–6PM,9AM–6PM,9AM–6PM,9AM–6PM,4.4,"1,510",,126.9729025,37.5765793,National Palace Museum of Korea.jpg
Seoul Museum of History,Local History Museum,"Free museum on the history of Seoul from prehistoric times to the present, with temporary exhibits.",9AM–7PM,9AM–7PM,Closed,9AM–8PM,9AM–8PM,9AM–8PM,9AM–8PM,4.4,"1,376",,126.9683159,37.5705077,Seoul Museum of History.jpg
"Leeum, Samsung Museum of Art",미술관,Audio guides are offered at this polished art museum spotlighting classic & contemporary Korean art.,10:30AM–6PM,10:30AM–6PM,Closed,10:30AM–6PM,10:30AM–6PM,10:30AM–6PM,10:30AM–6PM,4.4,849,,126.996385,37.538122,"Leeum, Samsung Museum of Art.jpg"
Dobongsan,산봉우리,"2,426-ft. mountain featuring sizable rock formations, trails, an ancient temple & scenic valleys.",,,,,,,,4.5,92,,126.9981318,37.7004617,Dobongsan.jpg
Unhyeongung,Palace,"Historic complex with homes for royal & political leaders, now holding events, tours & weddings.",9AM–7PM,9AM–7PM,Closed,9AM–7PM,9AM–7PM,9AM–7PM,9AM–7PM,4.2,614,,126.9852092,37.5760774,Unhyeongung.jpg
Tapgol Park,Park,"Landscaped park housing a protected, 10-story, stone pagoda & a traditional, octagonal pavilion.",,,,,,,,3.6,710,,126.986191,37.5715621,Tapgol Park.jpg
Yeouido Hangang Park,공원,"Large, popular park on the river featuring scenic views, plus running paths & a swimming pool.",Open 24 hours,Open 24 hours,Open 24 hours,Open 24 hours,Open 24 hours,Open 24 hours,Open 24 hours,4.5,"2,691",,126.9321072,37.5284017,Yeouido Hangang Park.jpg
Myeongdong Cathedral,Cathedral,"Brick-built, 19th-century, Gothic-style Catholic cathedral with a 45m-high bell tower.",,,,,,,,4.5,624,,126.9842134,37.5630609,Myeongdong Cathedral.jpg
Namsangol Hanok Village,관광 명소,"Tours & cultural programs inside a recreated Korean village with 5 restored hanoks, built 1392–1910.",9AM–9PM,9AM–9PM,Closed,9AM–9PM,9AM–9PM,9AM–9PM,9AM–9PM,4.2,"3,127",,126.992283,37.559315,Namsangol Hanok Village.jpg
Gwanaksan,산봉우리,,,,,,,,,4.5,117,,126.9434499,37.4429367,Gwanaksan.jpg
Sinsa boulevard,관광 명소,"Established venue lined with high-end stores, cafes & people-watching opportunities.",Open 24 hours,Open 24 hours,Open 24 hours,Open 24 hours,Open 24 hours,Open 24 hours,Open 24 hours,4.1,"1,842",,127.0207328,37.5205746,Sinsa boulevard.jpg
Sinchon-dong,,,,,,,,,,,,,126.9221245,37.5661054,Sinchon-dong.jpg
Gyeongui Line Forest Park,공원,,Open 24 hours,Open 24 hours,Open 24 hours,Open 24 hours,Open 24 hours,Open 24 hours,Open 24 hours,4.3,118,,126.9233815,37.5584769,Gyeongui Line Forest Park.jpg
Mangwon-dong,,,,,,,,,,,,,126.8826157,37.5556933,Mangwon-dong.jpg
Coffee Smith Gyeongnidan-gil,Coffee Store,,10AM–1AM,10AM–11PM,10AM–11PM,10AM–11PM,10AM–11PM,10AM–11PM,10AM–1AM,3.8,37,,126.9878375,37.5393308,Coffee Smith Gyeongnidan-gil.jpg
Times Square Mall,쇼핑몰,,10:30AM–10PM,10:30AM–10PM,10:30AM–10PM,10:30AM–10PM,10:30AM–10PM,10:30AM–10PM,10:30AM–10PM,4.2,"5,284",,126.9009818,37.5171639,Times Square Mall.jpg
Seoul Art Space Mullae,비영리단체,,,,,,,,,4.1,19,,126.897949,37.5131769,Seoul Art Space Mullae.jpg
Gwanak-gu,,,,,,,,,,,,,126.8665674,37.4639161,Gwanak-gu.jpg
Banpo Hangang Park,Park,,Open 24 hours,Open 24 hours,Open 24 hours,Open 24 hours,Open 24 hours,Open 24 hours,Open 24 hours,4.2,"2,042",,126.9961397,37.5110052,Banpo Hangang Park.jpg
Seolleung and Jeongneung Royal Tombs,고분/왕릉,Large city park & gathering place on burial grounds containing tombs of former kings & queen.,6AM–9PM,6AM–9PM,Closed,6AM–9PM,6AM–9PM,6AM–9PM,6AM–9PM,4.3,363,,127.0467917,37.5067588,Seolleung and Jeongneung Royal Tombs.jpg
Gangnam-gu,,,,,,,,,,,,,126.997728,37.496828,Gangnam-gu.jpg
Teheran-ro,,,,,,,,,,,,,127.0123138,37.5039991,Teheran-ro.jpg
Jamsil Han River Park,Park,,Open 24 hours,Open 24 hours,Open 24 hours,Open 24 hours,Open 24 hours,Open 24 hours,Open 24 hours,4.3,"1,009",,127.081523,37.5179526,Jamsil Han River Park.jpg
Seoul Express Bus Terminal,Bus Station,,,,,,,,,3.9,143,,127.0047063,37.5054509,Seoul Express Bus Terminal.jpg
Yangjae Citizens' Forest,공원,"Big tree-filled park with a walking path & monuments, plus tennis, basketball & volleyball courts.",Open 24 hours,Open 24 hours,Open 24 hours,Open 24 hours,Open 24 hours,Open 24 hours,Open 24 hours,4.4,486,,127.0333837,37.4706864,Yangjae Citizens' Forest.jpg
Olympic Stadium,Stadium,,,,,,,,,4.2,909,,127.0707589,37.5153144,Olympic Stadium.jpg
Songpa Naru Park (Seokchon Lake Park),공원,,Open 24 hours,Open 24 hours,Open 24 hours,Open 24 hours,Open 24 hours,Open 24 hours,Open 24 hours,4.4,510,,127.1008244,37.5097431,Songpa Naru Park (Seokchon Lake Park).jpg
Seoul Seokchondong Ancient Tombs,고분/왕릉,,Open 24 hours,Open 24 hours,Open 24 hours,Open 24 hours,Open 24 hours,Open 24 hours,Open 24 hours,4.3,149,,127.100071,37.502573,Seoul Seokchondong Ancient Tombs.jpg
Garak Market,시장,,Open 24 hours,Open 24 hours,Open 24 hours,Open 24 hours,Open 24 hours,Open 24 hours,Open 24 hours,4.0,"1,171",,127.1126744,37.4928569,Garak Market.jpg
Ttukseom Han River Park,공원,,Open 24 hours,Open 24 hours,Open 24 hours,Open 24 hours,Open 24 hours,Open 24 hours,Open 24 hours,4.3,"1,009",,127.0678368,37.5291052,Ttukseom Han River Park.jpg
The Classic 500,,,,,,,,,,4.3,368,,127.0524676,37.5291039,The Classic 500.jpg
Daehak-ro,,,,,,,,,,,,,126.996125,37.5781487,Daehak-ro.jpg
Wangsimni,Subway Station,,,,,,,,,3.7,41,,126.9653865,37.5781434,Wangsimni.jpg
Itaewon-dong,,,,,,,,,,,,,126.9834268,37.5388448,Itaewon-dong.jpg
Sieoso Hotel Seoul,,,,,,,,,,3.9,52,,126.9570549,37.5388393,Sieoso Hotel Seoul.jpg
송리단길,음식점,,,,,,,,,,,,127.104901,37.5080488,송리단길.jpg
Myeong-dong,,,,,,,,,,,,,126.9733034,37.5615512,Myeong-dong.jpg
Seoul City Hall,City or Town Hall,,Closed,Closed,9AM–6PM,9AM–6PM,9AM–6PM,9AM–6PM,9AM–6PM,4.0,195,,126.9732605,37.5615506,Seoul City Hall.jpg
Seoul Station,Subway Station,,,,,,,,,4.2,198,,126.9608648,37.5536067,Seoul Station.jpg
North Seoul Dream Forest,공원,"Densely wooded city park with cherry blossoms, maple trees, a pond, waterfall & art center.",Open 24 hours,Open 24 hours,Open 24 hours,Open 24 hours,Open 24 hours,Open 24 hours,Open 24 hours,4.4,945,,127.0384306,37.6214313,North Seoul Dream Forest.jpg
Seongsu-dong 2(i)-ga,,,,,,,,,,,,,127.0403665,37.5399422,Seongsu-dong 2(i)-ga.jpg
Ikseon-dong,,,,,,,,,,,,,126.9875136,37.5741939,Ikseon-dong.jpg
Noryangjin Fisheries Wholesale Market,수산 시장,Expansive wholesale & retail market with stalls offering hundreds of types of fish & seafood.,Open 24 hours,Open 24 hours,Open 24 hours,Open 24 hours,Open 24 hours,Open 24 hours,Open 24 hours,3.8,"7,033",,126.9386684,37.5152131,Noryangjin Fisheries Wholesale Market.jpg
보라매공원,Park,"Big grassy park & former site of an air force academy featuring open fields, running paths & a pond.",Open 24 hours,Open 24 hours,Open 24 hours,Open 24 hours,Open 24 hours,Open 24 hours,Open 24 hours,4.3,"1,824",,126.9057464,37.5152079,보라매공원.jpg
Lotte World Tower,Tourist Attraction,,10AM–10PM,10AM–10PM,10AM–10PM,10AM–10PM,10AM–10PM,10AM–10PM,10AM–10PM,4.3,"13,492",,127.1013039,37.5131507,Lotte World Tower.jpg
Gangnam Station,Subway Station,,,,,,,,,4.1,219,,127.0245147,37.4986414,Gangnam Station.jpg
Starfield Coex Mall,쇼핑몰,"Massive underground shopping mall & convention center with a theater, aquarium & restaurants.",10:30AM–10PM,10:30AM–10PM,10:30AM–10PM,10:30AM–10PM,10:30AM–10PM,10:30AM–10PM,10:30AM–10PM,4.2,"8,899",,127.056914,37.5116833,Starfield Coex Mall.jpg
서대문독립공원,공원,This park with a visitor center includes a museum in a former prison & the ruins of a historic gate.,Open 24 hours,Open 24 hours,Open 24 hours,Open 24 hours,Open 24 hours,Open 24 hours,Open 24 hours,4.5,53,,126.9541663,37.5740613,서대문독립공원.jpg
Seodaemun Museum of Natural History,Natural History Museum,"Modern natural history museum with dinosaur skeletons, butterflies & fossil exhibits.",10AM–7PM,10AM–7PM,Closed,10AM–6PM,10AM–6PM,10AM–6PM,10AM–6PM,4.2,883,,126.9344615,37.5759115,Seodaemun Museum of Natural History.jpg
화양동 느티나무 공원,공원,,,,,,,,,4.4,5,,127.072134,37.5505389,화양동 느티나무 공원.jpg
광진광장공원,공원,,Open 24 hours,Open 24 hours,Open 24 hours,Open 24 hours,Open 24 hours,Open 24 hours,Open 24 hours,4.0,54,,127.072134,37.5505389,광진광장공원.jpg
아남공원,공원,,,,,,,,,3.0,7,,127.0472021,37.5468721,아남공원.jpg
뚝섬한강공원,공원,,Open 24 hours,Open 24 hours,Open 24 hours,Open 24 hours,Open 24 hours,Open 24 hours,Open 24 hours,4.3,"1,016",,127.072134,37.5505389,뚝섬한강공원.jpg
한마음공원,공원,,,,,,,,,3.9,28,,127.072134,37.5505389,한마음공원.jpg
살곶이체육공원,공원,,Open 24 hours,Open 24 hours,Open 24 hours,Open 24 hours,Open 24 hours,Open 24 hours,Open 24 hours,3.9,305,,127.0319534,37.5541209,살곶이체육공원.jpg
해오름공원,공원,,,,,,,,,3.1,25,,127.072134,37.5505389,해오름공원.jpg
서울숲공원 Seoul Forest Park,공원,,Open 24 hours,Open 24 hours,Open 24 hours,Open 24 hours,Open 24 hours,Open 24 hours,Open 24 hours,4.5,"1,849",,127.0209686,37.5450111,서울숲공원 Seoul Forest Park.jpg
간데메공원,공원,,Open 24 hours,Open 24 hours,Open 24 hours,Open 24 hours,Open 24 hours,Open 24 hours,Open 24 hours,4.0,115,,127.0311752,37.5733686,간데메공원.jpg
구의공원,공원,,Open 24 hours,Open 24 hours,Open 24 hours,Open 24 hours,Open 24 hours,Open 24 hours,Open 24 hours,4.3,57,,127.072134,37.5505389,구의공원.jpg
용마폭포공원,공원,,Open 24 hours,Open 24 hours,Open 24 hours,Open 24 hours,Open 24 hours,Open 24 hours,Open 24 hours,4.3,314,,127.072134,37.5505389,용마폭포공원.jpg
아차산배수지체육공원,공원,,Open 24 hours,Open 24 hours,Open 24 hours,Open 24 hours,Open 24 hours,Open 24 hours,Open 24 hours,4.1,85,,127.072134,37.5505389,아차산배수지체육공원.jpg
답십리공원,공원,,,,,,,,,4.7,9,,127.0458959,37.5743965,답십리공원.jpg
정말어린이공원,공원,,,,,,,,,3.9,23,,127.072134,37.5505389,정말어린이공원.jpg
아차산생태공원,생태 공원,,Open 24 hours,Open 24 hours,Open 24 hours,Open 24 hours,Open 24 hours,Open 24 hours,Open 24 hours,4.1,436,,127.072134,37.5505389,아차산생태공원.jpg
용두근린공원,공원,,Open 24 hours,Open 24 hours,Open 24 hours,Open 24 hours,Open 24 hours,Open 24 hours,Open 24 hours,4.1,37,,127.0217594,37.5732295,용두근린공원.jpg
장독골공원,공원,,,,,,,,,4.0,9,,127.072134,37.5505389,장독골공원.jpg
향림공원,공원,,,,,,,,,2.3,3,,127.0359255,37.546733,향림공원.jpg
왕십리문화공원,공원,,Open 24 hours,Open 24 hours,Open 24 hours,Open 24 hours,Open 24 hours,Open 24 hours,Open 24 hours,4.4,18,,127.0177601,37.5617309,왕십리문화공원.jpg
성수근린공원,공원,,Open 24 hours,Open 24 hours,Open 24 hours,Open 24 hours,Open 24 hours,Open 24 hours,Open 24 hours,3.5,27,,127.0348978,37.5447332,성수근린공원.jpg
풀잎문화센터,문화센터,,,,,,,,,4.0,2,,127.049844,37.539321,풀잎문화센터.jpg
광진문화예술회관,문화센터,,,,,,,,,4.1,82,,127.072134,37.5505389,광진문화예술회관.jpg
서울교육문화센터,문화센터,,오전 9:00~오후 6:00,Closed,오전 6:00~오후 10:00,오전 6:00~오후 10:00,오전 6:00~오후 10:00,오전 6:00~오후 10:00,오전 6:00~오후 10:00,3.9,44,,127.0390355,37.561926,서울교육문화센터.jpg
청담문화센타,문화센터,,,,,,,,,4.0,2,,127.0317745,37.5250521,청담문화센타.jpg
광진구정보화교육센터,문화센터,,,,,,,,,4.4,5,,127.072134,37.5505389,광진구정보화교육센터.jpg
한국문화센터 건대지부,문화센터,,,,,,,,,,,,127.0496743,37.5412895,한국문화센터 건대지부.jpg
중곡문화체육센터,스포츠 단지,,오전 9:00~오후 6:00,Closed,오전 6:00~오후 10:00,오전 6:00~오후 10:00,오전 6:00~오후 10:00,오전 6:00~오후 10:00,오전 6:00~오후 10:00,4.3,120,,127.072134,37.5505389,중곡문화체육센터.jpg
어린이회관,문화센터,,,,,,,,,3.7,92,,127.072134,37.5505389,어린이회관.jpg
장안1동문화센터,문화센터,,,,,,,,,3.3,3,,127.072134,37.5505389,장안1동문화센터.jpg
압구정평생학습관,문화센터,,,,,,,,,4.0,8,,127.0182323,37.5272625,압구정평생학습관.jpg
광진문화원,문화센터,,,,,,,,,3.9,24,,127.072134,37.5505389,광진문화원.jpg
언더스탠드에비뉴,문화센터,,,,,,,,,4.0,53,,127.0270002,37.5434438,언더스탠드에비뉴.jpg
성동구건강가정지원센터,건강 센터,,,,,,,,,4.3,4,,127.0136123,37.5654117,성동구건강가정지원센터.jpg
광진문화재단 나루아트센터,재단,,오전 8:00~오후 9:00,오전 8:00~오후 9:00,오전 8:00~오후 9:00,오전 8:00~오후 9:00,오전 8:00~오후 9:00,오전 8:00~오후 9:00,오전 8:00~오후 9:00,3.9,110,,127.072134,37.5505389,광진문화재단 나루아트센터.jpg
청담동문화센터,문화센터,,,,,,,,,,,,127.0317876,37.5250412,청담동문화센터.jpg
알렌센터,문화센터,,오전 8:30~오후 9:00,Closed,오전 8:30~오후 9:00,오전 8:30~오후 9:00,오전 8:30~오후 9:00,오전 8:30~오후 9:00,오전 8:30~오후 9:00,,,,127.0304705,37.525177,알렌센터.jpg
성동문화회관,문화센터,,,,,,,,,,,,127.0193874,37.5716772,성동문화회관.jpg
에이트 인스티튜트,교육 컨설턴트,,Closed,Closed,오전 9:00~오후 7:00,오전 9:00~오후 7:00,오전 9:00~오후 7:00,오전 9:00~오후 7:00,오전 9:00~오후 7:00,,,,127.0294445,37.5261291,에이트 인스티튜트.jpg
삼성2동문화센터,문화센터,,,,,,,,,4.1,17,,127.0284827,37.5111817,삼성2동문화센터.jpg
CGV 강변,영화관,,,,,,,,,4.0,986,,127.072134,37.5505389,CGV 강변.jpg
CGV 왕십리,영화관,,,,,,,,,4.2,"1,262",,127.020582,37.5620999,CGV 왕십리.jpg
롯데시네마 건대입구,영화관,,,,,,,,,4.1,703,,127.072134,37.5505389,롯데시네마 건대입구.jpg
롯데시네마 장안,영화관,,,,,,,,,3.8,132,,127.072134,37.5505389,롯데시네마 장안.jpg
CGV 압구정 본관,영화관,,,,,,,,,3.8,463,,127.0113564,37.5244988,CGV 압구정 본관.jpg
KU씨네마테크,영화관,,,,,,,,,4.3,85,,127.072134,37.5505389,KU씨네마테크.jpg
잠실자동차극장,자동차극장,,,,,,,,,3.5,46,,127.05122,37.5172454,잠실자동차극장.jpg
CGV 청담 씨네시티,영화관,,,,,,,,,4.2,676,,127.0195115,37.5228508,CGV 청담 씨네시티.jpg
무지개극장,예술,,,,,,,,,,,,127.072134,37.5505389,무지개극장.jpg
혜화동돈가스극장,,,,,,,,,,,,,127.072134,37.5505389,혜화동돈가스극장.jpg
롯데시네마 청량리,영화관,,,,,,,,,4.1,843,,127.0304806,37.5805621,롯데시네마 청량리.jpg
대한극장,영화관,,,,,,,,,4.0,967,,126.9778196,37.5610636,대한극장.jpg
군자동극장,,,,,,,,,,,,,127.072134,37.5505389,군자동극장.jpg
서울극장,영화관,,,,,,,,,4.3,92,,126.974182,37.5697471,서울극장.jpg
롯데시네마 황학,영화관,,,,,,,,,3.8,12,,127.0041318,37.5712514,롯데시네마 황학.jpg
롯데시네마 강동점,영화관,,,,,,,,,3.8,590,,127.1080164,37.5366748,롯데시네마 강동점.jpg
대한극장 청담,한식 고기구이 레스토랑,,,,,,,,,4.6,7,,127.0340902,37.525324,대한극장 청담.jpg
화양극장,음식점,,오전 11:30~오전 2:00,오전 11:30~오전 2:00,오전 11:30~오전 2:00,오전 11:30~오전 2:00,오전 11:30~오전 2:00,오전 11:30~오전 2:00,오전 11:30~오전 2:00,3.9,17,,127.0300478,37.5248923,화양극장.jpg
청춘극장,,,,,,,,,,,,,127.072134,37.5505389,청춘극장.jpg
CGV 건대입구,영화관,,,,,,,,,3.7,20,,127.0494215,37.5397613,CGV 건대입구.jpg
롯데시네마 월드타워,영화관,,,,,,,,,4.4,"1,993",,127.0875412,37.5140711,롯데시네마 월드타워.jpg
CGV 압구정 신관,영화관,,,,,,,,,3.5,4,,127.0118728,37.5242861,CGV 압구정 신관.jpg
메가박스 코엑스,영화관,,,,,,,,,4.4,"1,805",,127.041281,37.5124447,메가박스 코엑스.jpg
메가박스 상봉,영화관,,,,,,,,,3.8,692,,127.0571721,37.5931722,메가박스 상봉.jpg
롯데시네마 브로드웨이(신사),영화관,,,,,,,,,3.4,332,,127.004235,37.5165695,롯데시네마 브로드웨이(신사).jpg
메가박스 동대문,영화관,,,,,,,,,4.2,904,,126.9900682,37.5668686,메가박스 동대문.jpg
CGV 상봉,영화관,,,,,,,,,4.0,798,,127.0748089,37.5975887,CGV 상봉.jpg
메가박스 EOE4,영화관,,,,,,,,,3.9,12,,126.9849303,37.5512593,메가박스 EOE4.jpg
돈호야군자점,일본 음식점,,,,,,,,,3.6,5,,127.072134,37.5505389,돈호야군자점.jpg
한솥세종대점,음식점,,,,,,,,,3.0,1,,127.072134,37.5505389,한솥세종대점.jpg
조씨네 고기국수,음식점,,오전 11:30~오후 3:00,오전 11:30~오후 3:00,오전 11:30~오후 3:00,오전 11:30~오후 3:00,오전 11:30~오후 3:00,오전 11:30~오후 3:00,오전 11:30~오후 3:00,4.1,101,,127.072134,37.5505389,조씨네 고기국수.jpg
하이난,중국 음식점,,오전 10:00~오후 9:00,오전 10:00~오후 9:00,오전 10:00~오후 9:00,오전 10:00~오후 9:00,오전 10:00~오후 9:00,오전 10:00~오후 9:00,오전 10:00~오후 9:00,3.8,173,,127.072134,37.5505389,하이난.jpg
Tokyo420,일본 음식점,,오전 11:30~오후 9:00,오전 11:30~오후 9:00,오전 11:30~오후 9:00,오전 11:30~오후 9:00,오전 11:30~오후 9:00,오전 11:30~오후 9:00,오전 11:30~오후 9:00,3.6,83,,127.072134,37.5505389,Tokyo420.jpg
대명소곱창,음식점,,,,,,,,,4.1,70,,127.072134,37.5505389,대명소곱창.jpg
소문난 성수 감자탕,음식점,,Open 24 hours,Open 24 hours,Open 24 hours,Open 24 hours,Open 24 hours,Open 24 hours,Open 24 hours,2.0,2,,127.0368908,37.5428492,소문난 성수 감자탕.jpg
건국갈비,음식점,,오전 10:00~오후 10:00,Closed,오전 10:00~오후 10:00,오전 10:00~오후 10:00,오전 10:00~오후 10:00,오전 10:00~오후 10:00,오전 10:00~오후 10:00,3.7,18,,127.072134,37.5505389,건국갈비.jpg
명문한우가,한국식 소고기 전문 음식점,,,,,,,,,3.0,5,,127.072134,37.5505389,명문한우가.jpg
벨피아또,이탈리아 음식점,,오전 11:30~오후 3:30,오전 11:30~오후 3:30,오전 11:30~오후 3:30,오전 11:30~오후 3:30,오전 11:30~오후 3:30,오전 11:30~오후 3:30,오전 11:30~오후 3:30,4.0,133,,127.072134,37.5505389,벨피아또.jpg
매드포갈릭 건대스타시티점,이탈리아 음식점,,오전 11:30~오후 10:00,오전 11:30~오후 10:00,오전 11:30~오후 10:00,오전 11:30~오후 10:00,오전 11:30~오후 10:00,오전 11:30~오후 10:00,오전 11:30~오후 10:00,3.7,76,,127.072134,37.5505389,매드포갈릭 건대스타시티점.jpg
페스타마레,이탈리아 음식점,,오전 11:30~오후 10:00,오전 11:30~오후 10:00,오전 11:30~오후 10:00,오전 11:30~오후 10:00,오전 11:30~오후 10:00,오전 11:30~오후 10:00,오전 11:30~오후 10:00,3.7,32,,127.072134,37.5505389,페스타마레.jpg
개미집,음식점,,오전 10:00~오전 12:00,오전 10:00~오전 12:00,오전 10:00~오전 12:00,오전 10:00~오전 12:00,오전 10:00~오전 12:00,오전 10:00~오전 12:00,오전 10:00~오전 12:00,3.8,84,,127.072134,37.5505389,개미집.jpg
바베양장,음식점,,오전 11:00~오후 11:30,오전 11:00~오후 11:30,오전 11:00~오후 3:30,오전 11:00~오후 3:30,오전 11:00~오후 3:30,오전 11:00~오후 3:30,오전 11:00~오후 12:00,3.7,58,,127.0359435,37.542462,바베양장.jpg
소세지연구소 부대전골,음식점,,오전 10:00~오후 10:00,Closed,오전 10:00~오후 10:00,오전 10:00~오후 10:00,오전 10:00~오후 10:00,오전 10:00~오후 10:00,오전 10:00~오후 10:00,4.9,8,,127.0352974,37.5484923,소세지연구소 부대전골.jpg
빠오즈푸,딤섬 전문 레스토랑,,오전 11:30~오후 8:30,오전 11:30~오후 8:30,오전 11:30~오후 8:30,오전 11:30~오후 8:30,Closed,오전 11:30~오후 8:30,오전 11:30~오후 8:30,4.1,220,,127.072134,37.5505389,빠오즈푸.jpg
엉뚱식당 한우전문점,음식점,,,,,,,,,4.9,9,,127.0497051,37.5649299,엉뚱식당 한우전문점.jpg
샹그라,음식점,,오전 11:00~오후 10:00,오전 11:00~오후 10:00,오전 11:00~오후 10:00,오전 11:00~오후 10:00,오전 11:00~오후 10:00,오전 11:00~오후 10:00,오전 11:00~오후 10:00,4.0,1,,127.072134,37.5505389,샹그라.jpg
매화반점,중국 음식점,,오후 12:00~오전 1:00,오후 12:00~오전 1:00,오후 12:00~오전 1:00,오후 12:00~오전 1:00,오후 12:00~오전 1:00,오후 12:00~오전 1:00,오후 12:00~오전 1:00,3.7,606,,127.072134,37.5505389,매화반점.jpg
투썸플레이스 어린이대공원역점,카페,,오전 8:00~오전 2:30,오전 8:00~오후 11:30,오전 8:00~오후 11:30,오전 8:00~오후 11:30,오전 8:00~오후 11:30,오전 8:00~오후 11:30,오전 8:00~오전 2:30,3.9,47,,127.072134,37.5505389,투썸플레이스 어린이대공원역점.jpg
벨롱에스프레소,카페,,오전 11:00~오후 10:30,오전 11:00~오후 10:30,오전 11:00~오후 10:30,오전 11:00~오후 10:30,오전 11:00~오후 10:30,오전 11:00~오후 10:30,오전 11:00~오후 10:30,4.1,21,,127.072134,37.5505389,벨롱에스프레소.jpg
롬곡,카페,,,,,,,,,4.4,23,,127.072134,37.5505389,롬곡.jpg
카페레가토(CAFFE' LEGATO),카페,,오전 11:30~오후 11:00,오전 11:30~오후 11:00,오전 11:30~오후 11:00,Closed,오전 11:30~오후 11:00,오전 11:30~오후 11:00,오전 11:30~오후 11:00,,,,127.0500747,37.5463294,카페레가토(CAFFE' LEGATO).jpg
카페 호이,카페,,,,,,,,,4.3,9,,127.072134,37.5505389,카페 호이.jpg
(주)바나나토크,카페,,오전 11:00~오후 11:00,오전 11:00~오후 11:00,오전 11:00~오후 11:00,오전 11:00~오후 11:00,오전 11:00~오후 11:00,오전 11:00~오후 11:00,오전 11:00~오후 11:00,3.5,56,,127.072134,37.5505389,(주)바나나토크.jpg
카페데코믹스 건대점,카페,,,,,,,,,4.1,25,,127.072134,37.5505389,카페데코믹스 건대점.jpg
감성다방,카페,,오전 11:30~오후 11:00,오전 11:30~오후 11:00,오전 11:30~오후 11:00,Closed,오전 11:30~오후 11:00,오전 11:30~오후 11:00,오전 11:30~오후 11:00,4.5,23,,127.072134,37.5505389,감성다방.jpg
투썸플레이스 아차산역,카페,,오전 8:00~오후 11:30,오전 8:00~오후 11:30,오전 8:00~오후 11:30,오전 8:00~오후 11:30,오전 8:00~오후 11:30,오전 8:00~오후 11:30,오전 8:00~오후 11:30,4.1,56,,127.072134,37.5505389,투썸플레이스 아차산역.jpg
투썸플레이스군자역점,카페,,,,,,,,,3.6,30,,127.072134,37.5505389,투썸플레이스군자역점.jpg
투썸플레이스 성수역,카페,,오전 9:00~오후 11:00,오전 9:00~오후 10:00,오전 8:00~오후 11:00,오전 8:00~오후 11:00,오전 8:00~오후 11:00,오전 8:00~오후 11:00,오전 8:00~오후 11:00,4.0,6,,127.0365232,37.5449238,투썸플레이스 성수역.jpg
탐앤탐스군자역점,카페,,오전 7:00~오전 2:00,오전 7:00~오전 2:00,오전 7:00~오전 2:00,오전 7:00~오전 2:00,오전 7:00~오전 2:00,오전 7:00~오전 2:00,오전 7:00~오전 2:00,3.8,30,,127.072134,37.5505389,탐앤탐스군자역점.jpg
케이이스케이프,카페,,오전 10:00~오후 11:15,오전 10:00~오후 11:15,오전 10:00~오후 11:15,오전 10:00~오후 11:15,오전 10:00~오후 11:15,오전 10:00~오후 11:15,오전 10:00~오후 11:15,3.8,4,,127.072134,37.5505389,케이이스케이프.jpg
와플그란데,카페,,오전 11:00~오후 7:00,오전 11:00~오후 7:00,오전 8:00~오후 10:00,오전 8:00~오후 10:00,오전 8:00~오후 10:00,오전 8:00~오후 10:00,오전 8:00~오후 10:00,4.3,13,,127.072134,37.5505389,와플그란데.jpg
더착한커피세종대점,카페,,,,,,,,,3.5,2,,127.072134,37.5505389,더착한커피세종대점.jpg
이디야 성수우리W타워점,카페,,오전 8:00~오후 10:00,Closed,오전 8:00~오후 10:00,오전 8:00~오후 10:00,오전 8:00~오후 10:00,오전 8:00~오후 10:00,오전 8:00~오후 10:00,3.3,20,,127.0447038,37.5448163,이디야 성수우리W타워점.jpg
샹그리라,카페,,오후 12:00~10:00,오후 12:00~10:00,오후 12:00~10:00,오후 12:00~10:00,오후 12:00~10:00,오후 12:00~10:00,오후 12:00~10:00,4.2,25,,127.072134,37.5505389,샹그리라.jpg
Cafe Mummy,카페,,오후 12:00~10:00,오후 12:00~10:00,오후 12:00~10:00,오후 12:00~10:00,오후 12:00~10:00,오후 12:00~10:00,오후 12:00~10:00,3.0,1,,127.072134,37.5505389,Cafe Mummy.jpg
마우스래빗,카페,,오전 10:00~오후 11:30,오전 10:00~오후 11:30,오전 10:00~오후 11:30,오전 10:00~오후 11:30,오전 10:00~오후 11:30,오전 10:00~오후 11:30,오전 10:00~오후 11:30,4.6,252,,127.072134,37.5505389,마우스래빗.jpg
어니언,카페,,오전 10:00~오후 10:00,오전 10:00~오후 10:00,오전 8:00~오후 10:00,오전 8:00~오후 10:00,오전 8:00~오후 10:00,오전 8:00~오후 10:00,오전 8:00~오후 10:00,4.1,165,,127.0407063,37.5446969,어니언.jpg
이디야,커피숍/커피 전문점,,,,,,,,,3.8,6,,127.072134,37.5505389,이디야.jpg
그라지에,커피숍/커피 전문점,,,,,,,,,,,,127.072134,37.5505389,그라지에.jpg
최가커피,커피숍/커피 전문점,,오전 11:30~오후 11:50,오후 12:00~11:00,오전 11:30~오후 11:50,오전 11:30~오후 11:50,오전 11:30~오후 11:50,오전 11:30~오후 11:50,오전 11:30~오후 11:50,4.5,81,,127.072134,37.5505389,최가커피.jpg
엔제리너스 건대역점,커피숍/커피 전문점,,Open 24 hours,Open 24 hours,Open 24 hours,Open 24 hours,Open 24 hours,Open 24 hours,Open 24 hours,3.9,175,,127.072134,37.5505389,엔제리너스 건대역점.jpg
헨델과그레텔,커피숍/커피 전문점,,,,,,,,,4.1,10,,127.072134,37.5505389,헨델과그레텔.jpg
아리스타,커피숍/커피 전문점,,,,,,,,,3.5,4,,127.0457856,37.5467332,아리스타.jpg
투썸플레이스 건대입구점,커피숍/커피 전문점,,오전 8:30~오전 1:00,오전 8:30~오전 1:00,오전 8:30~오전 1:00,오전 8:30~오전 1:00,오전 8:30~오전 1:00,오전 8:30~오전 1:00,오전 8:30~오전 1:00,,,,127.072134,37.5505389,투썸플레이스 건대입구점.jpg
커피빈코리아 건대스타시티점,커피숍/커피 전문점,특유의 아이스 음료를 비롯하여 다양한 음료를 판매하는 커피 체인점입니다.,,,,,,,,4.2,12,,127.072134,37.5505389,커피빈코리아 건대스타시티점.jpg
이디야커피,커피숍/커피 전문점,,,,,,,,,3.0,2,,127.0487379,37.5609017,이디야커피.jpg
엔젤리너스 건대스타시티점,커피숍/커피 전문점,,오전 7:00~오전 12:00,오전 7:00~오전 12:00,오전 8:00~오후 11:00,오전 8:00~오후 11:00,오전 8:00~오후 11:00,오전 8:00~오후 11:00,오전 8:00~오후 11:00,3.6,5,,127.072134,37.5505389,엔젤리너스 건대스타시티점.jpg
커피마켓,커피숍/커피 전문점,,오전 9:00~오전 3:00,오전 9:00~오전 12:00,오전 9:00~오전 3:00,오전 9:00~오전 3:00,오전 9:00~오전 3:00,오전 9:00~오전 3:00,오전 9:00~오전 3:00,3.7,73,,127.072134,37.5505389,커피마켓.jpg
스타벅스 장한평역점,커피숍/커피 전문점,시애틀에 본사를 두고 있고 간단한 스낵과 무료 Wi-Fi를 제공하는 유명 커피 체인점입니다.,오전 7:00~오후 11:00,오전 8:00~오후 11:00,오전 7:00~오후 11:00,오전 7:00~오후 11:00,오전 7:00~오후 11:00,오전 7:00~오후 11:00,오전 7:00~오후 11:00,4.1,113,,127.0480034,37.5622228,스타벅스 장한평역점.jpg
할리스커피 테크노마트점,커피숍/커피 전문점,,오전 9:15~오후 10:30,오전 9:15~오후 10:30,오전 9:15~오후 10:00,오전 9:15~오후 10:00,오전 9:15~오후 10:00,오전 9:15~오후 10:00,오전 9:15~오후 10:30,4.3,3,,127.072134,37.5505389,할리스커피 테크노마트점.jpg
스타벅스 건대입구점,커피숍/커피 전문점,시애틀에 본사를 두고 있고 간단한 스낵과 무료 Wi-Fi를 제공하는 유명 커피 체인점입니다.,오전 8:00~오후 11:00,오전 8:00~오후 11:00,오전 7:00~오후 11:00,오전 7:00~오후 11:00,오전 7:00~오후 11:00,오전 7:00~오후 11:00,오전 7:00~오후 11:00,3.7,190,,127.072134,37.5505389,스타벅스 건대입구점.jpg
스타벅스 군자역점,커피숍/커피 전문점,시애틀에 본사를 두고 있고 간단한 스낵과 무료 Wi-Fi를 제공하는 유명 커피 체인점입니다.,오전 7:00~오후 11:30,오전 7:00~오후 11:30,오전 7:00~오후 11:00,오전 7:00~오후 11:00,오전 7:00~오후 11:00,오전 7:00~오후 11:00,오전 7:00~오후 11:00,3.9,122,,127.072134,37.5505389,스타벅스 군자역점.jpg
카페베네 장안점,커피숍/커피 전문점,달콤한 스낵과 샌드위치를 판매하는 편안한 분위기의 유럽풍 커피하우스 체인점입니다.,오전 8:00~오전 12:00,오전 8:00~오전 12:00,오전 8:00~오전 12:00,오전 8:00~오전 12:00,오전 8:00~오전 12:00,오전 8:00~오전 12:00,오전 8:00~오전 12:00,3.6,40,,127.0432299,37.5623146,카페베네 장안점.jpg
엔제리너스 건대병원,커피숍/커피 전문점,,Open 24 hours,Open 24 hours,Open 24 hours,Open 24 hours,Open 24 hours,Open 24 hours,Open 24 hours,3.3,74,,127.072134,37.5505389,엔제리너스 건대병원.jpg
모카하마,커피숍/커피 전문점,,Closed,Closed,오전 9:00~오후 9:00,오전 9:00~오후 9:00,오전 9:00~오후 9:00,오전 9:00~오후 9:00,오전 9:00~오후 9:00,3.9,7,,127.072134,37.5505389,모카하마.jpg
벨라빈스커피,커피숍/커피 전문점,,,,,,,,,3.3,4,,127.0467855,37.5478164,벨라빈스커피.jpg
투썸플레이스 장안점,커피숍/커피 전문점,,오전 11:00~오후 12:00,오전 11:00~오후 12:00,오전 11:00~오후 12:00,오전 11:00~오후 12:00,오전 11:00~오후 12:00,오전 11:00~오후 12:00,오전 11:00~오후 12:00,3.4,20,,127.072134,37.5505389,투썸플레이스 장안점.jpg
몽골 울란바타르 문화진흥원,문화센터,,,,,,,,,3.5,4,,127.072134,37.5505389,몽골 울란바타르 문화진흥원.jpg
성수아트홀,공연예술 극장,,,,,,,,,4.3,96,,127.0294472,37.5454017,성수아트홀.jpg
홍대돈부리 건대점,음식점,,,,,,,,,4.0,1,,127.072134,37.5505389,홍대돈부리 건대점.jpg
전주명가콩나물국밥,음식점,,Open 24 hours,Open 24 hours,Open 24 hours,Open 24 hours,Open 24 hours,Open 24 hours,Open 24 hours,3.9,94,,127.072134,37.5505389,전주명가콩나물국밥.jpg
차이나플레인,중국 음식점,,오전 11:30~오후 10:00,오전 11:30~오후 10:00,오전 11:30~오후 10:00,오전 11:30~오후 10:00,오전 11:30~오후 10:00,오전 11:30~오후 10:00,오전 11:30~오후 10:00,3.6,70,,127.0394529,37.5445945,차이나플레인.jpg
비스트로 드 욘트빌 BISTROT de YOUNTVILLE (Restaurant français),프랑스 음식점,,오후 12:00~3:00,오후 12:00~3:00,오후 12:00~3:00,오후 12:00~3:00,오후 12:00~3:00,오후 12:00~3:00,오후 12:00~3:00,4.3,67,,127.0237136,37.526034,비스트로 드 욘트빌 BISTROT de YOUNTVILLE (Restaurant français).jpg
꼬메노,카페,,,,,,,,,4.4,10,,127.072134,37.5505389,꼬메노.jpg
김종욱커피,커피숍/커피 전문점,,오전 9:00~오후 10:00,오전 9:00~오후 10:00,오전 9:00~오후 10:00,오전 9:00~오후 10:00,오전 9:00~오후 10:00,오전 9:00~오후 10:00,오전 9:00~오후 10:00,4.4,44,,127.0320031,37.5495606,김종욱커피.jpg
바곱창,술집,,,,,,,,,4.3,10,,127.019475,37.5504806,바곱창.jpg
피에스타 2 스윙댄스 바 Fiesta 2 Swing Dance Bar,술집,,,,,,,,,4.6,16,,127.019475,37.5504806,피에스타 2 스윙댄스 바 Fiesta 2 Swing Dance Bar.jpg
positive zero lounge,재즈바,,오후 6:00~오전 2:00,오후 6:00~오전 2:00,Closed,오후 6:00~오전 2:00,오후 6:00~오전 2:00,오후 6:00~오전 2:00,오후 6:00~오전 2:00,4.4,51,,127.019475,37.5504806,positive zero lounge.jpg
바 델마,바 & 그릴,,오후 7:30~오전 2:00,Closed,오후 7:30~오전 2:00,오후 7:30~오전 2:00,오후 7:30~오전 2:00,오후 7:30~오전 2:00,오후 7:30~오전 2:00,4.6,12,,127.019475,37.5504806,바 델마.jpg
믹솔로지 MIXOLOGY,칵테일바,,오후 8:00~오전 3:00,Closed,오후 8:00~오전 2:00,오후 8:00~오전 2:00,오후 8:00~오전 2:00,오후 8:00~오전 2:00,오후 8:00~오전 3:00,4.9,30,,127.019475,37.5504806,믹솔로지 MIXOLOGY.jpg
정식바,와인 바,,오후 6:00~오전 2:00,오후 12:00~3:00,오후 6:00~오전 2:00,오후 6:00~오전 2:00,오후 6:00~오전 2:00,오후 6:00~오전 2:00,오후 6:00~오전 2:00,4.5,24,,127.019475,37.5504806,정식바.jpg
오아시스 LP 뮤직바,술집,,,,,,,,,4.8,17,,127.019475,37.5504806,오아시스 LP 뮤직바.jpg
White Bar (화이트 바),칵테일바,,오후 7:00~오전 3:00,오후 7:00~오전 2:00,오후 7:00~오전 3:00,오후 7:00~오전 3:00,오후 7:00~오전 3:00,오후 7:00~오전 3:00,오후 7:00~오전 3:00,4.3,24,,127.019475,37.5504806,White Bar (화이트 바).jpg
볼트82,칵테일바,,오전 9:00~오전 4:00,오전 9:00~오전 2:00,오후 7:00~오전 3:00,오전 9:00~오전 3:00,오전 9:00~오전 3:00,오전 9:00~오전 4:00,오전 9:00~오전 4:00,4.4,79,,127.019475,37.5504806,볼트82.jpg
바코난,칵테일바,,오후 7:00~오전 3:00,오후 7:00~오전 3:00,오후 7:00~오전 3:00,오후 7:00~오전 3:00,오후 7:00~오전 3:00,오후 7:00~오전 3:00,오후 7:00~오전 3:00,4.3,6,,127.019475,37.5504806,바코난.jpg
칵테일바 카페루이 본점 (Cafe Louis HQ),칵테일바,,오후 6:00~오전 2:00,Closed,오후 6:00~오전 2:00,오후 6:00~오전 2:00,오후 6:00~오전 2:00,오후 6:00~오전 2:00,오후 6:00~오전 2:00,4.2,19,,127.019475,37.5504806,칵테일바 카페루이 본점 (Cafe Louis HQ).jpg
레드모델바 잠실신천점,술집,,오후 8:00~오전 7:00,Closed,오후 8:00~오전 7:00,오후 8:00~오전 7:00,오후 8:00~오전 7:00,오후 8:00~오전 7:00,오후 8:00~오전 7:00,4.2,5,,127.019475,37.5504806,레드모델바 잠실신천점.jpg
한남동 와이낫 (WHY NOT),칵테일바,,오후 7:00~오전 5:00,오후 7:00~오전 4:00,오후 7:00~오전 4:00,오후 7:00~오전 4:00,오후 7:00~오전 4:00,오후 7:00~오전 4:00,오후 7:00~오전 5:00,4.4,54,,127.019475,37.5504806,한남동 와이낫 (WHY NOT).jpg
미식바,와인 바,,,,,,,,,5.0,1,,127.019475,37.5504806,미식바.jpg
원스인어블루문,재즈바,,오후 6:00~오전 2:00,오후 6:00~오전 12:00,오후 6:00~오전 1:00,오후 6:00~오전 1:00,오후 6:00~오전 2:00,오후 6:00~오전 2:00,오후 6:00~오전 2:00,4.4,238,,127.019475,37.5504806,원스인어블루문.jpg
Bar Musk - 바 머스크,술집,,오후 7:00~오전 2:00,Closed,오후 7:00~오전 2:00,오후 7:00~오전 2:00,오후 7:00~오전 2:00,오후 7:00~오전 2:00,오후 7:00~오전 2:00,4.6,15,,127.019475,37.5504806,Bar Musk - 바 머스크.jpg
1971바,술집,,,,,,,,,3.0,1,,127.019475,37.5504806,1971바.jpg
먼데이블루스 와인바,술집,,,,,,,,,4.4,28,,127.019475,37.5504806,먼데이블루스 와인바.jpg
사이드웨이 와인,와인 바,,오후 5:00~오전 2:00,오후 5:00~오전 12:00,오후 6:00~오전 2:00,오후 6:00~오전 2:00,오후 6:00~오전 2:00,오후 6:00~오전 2:00,오후 6:00~오전 2:00,4.3,46,,127.019475,37.5504806,사이드웨이 와인.jpg
신시어,바 & 그릴,,,,,,,,,4.7,7,,127.019475,37.5504806,신시어.jpg
세종문화회관,문화센터,,,,,,,,,4.3,"1,620",,126.9668882,37.5725254,세종문화회관.jpg
대치2문화센타,문화센터,,,,,,,,,3.7,28,,127.0556294,37.5022996,대치2문화센타.jpg
롯데MBC문화센터 강남점,문화센터,,,,,,,,,4.5,12,,127.0460367,37.4976341,롯데MBC문화센터 강남점.jpg
역삼2동문화센터,문화센터,,,,,,,,,5.0,1,,127.0380157,37.4959613,역삼2동문화센터.jpg
대치4문화복지회관,문화센터,,,,,,,,,3.9,23,,127.0491358,37.4997536,대치4문화복지회관.jpg
동부여성문화센터,문화센터,,,,,,,,,5.0,3,,127.0012392,37.5772007,동부여성문화센터.jpg
송파여성문화회관,문화센터,,오전 9:00~오후 10:00,Closed,오전 9:00~오후 10:00,오전 9:00~오후 10:00,오전 9:00~오후 10:00,오전 9:00~오후 10:00,오전 9:00~오후 10:00,3.8,146,,127.1010648,37.5058779,송파여성문화회관.jpg
허리우드극장,영화관,,,,,,,,,4.0,37,,126.9793248,37.5727009,허리우드극장.jpg
CGV 천호,영화관,,,,,,,,,4.2,941,,127.1334892,37.5456582,CGV 천호.jpg
합동영화(주),영화관,,,,,,,,,4.0,300,,126.9828812,37.5696522,합동영화(주).jpg
CGV 강남,영화관,,,,,,,,,3.7,"1,640",,127.0175587,37.5015645,CGV 강남.jpg
민속극장풍류,공연예술 극장,,,,,,,,,4.6,28,,127.0358766,37.5101818,민속극장풍류.jpg
CGV 피카디리1958,영화관,,,,,,,,,3.9,849,,126.9883196,37.5495559,CGV 피카디리1958.jpg
CGV 강남,영화관,,,,,,,,,3.7,"1,640",,126.9883196,37.5495559,CGV 강남.jpg
홍콩반점0410 어린이대공원점,중국 음식점,,,,,,,,,,,,127.0702833,37.5505439,홍콩반점0410 어린이대공원점.jpg
페리카나 화양리점,음식점,,,,,,,,,,,,127.0671614,37.544678,페리카나 화양리점.jpg
미다래,일본 음식점,,,,,,,,,3.0,2,,127.0692446,37.5422339,미다래.jpg
아이점프 군자점,카페,,오전 10:00~오후 8:00,오전 10:00~오후 8:00,오전 10:00~오후 8:00,오전 10:00~오후 8:00,오전 10:00~오후 8:00,오전 10:00~오후 8:00,오전 10:00~오후 8:00,4.1,13,,127.0702833,37.5505439,아이점프 군자점.jpg
단지커피,카페,,오후 12:00~9:00,Closed,오전 11:00~오후 9:00,오전 11:00~오후 9:00,오전 11:00~오후 9:00,오전 11:00~오후 9:00,오전 11:00~오후 9:00,4.6,11,,127.0702833,37.5505439,단지커피.jpg
옥루몽어린이대공원점,카페,,오전 8:00~오후 11:00,오전 8:00~오후 11:00,오전 8:00~오후 11:00,오전 8:00~오후 11:00,오전 8:00~오후 11:00,오전 8:00~오후 11:00,오전 8:00~오후 11:00,4.0,21,,127.0702833,37.5505439,옥루몽어린이대공원점.jpg
모서리에커피집,카페,,오전 11:30~오후 10:00,오전 11:30~오후 10:00,오전 11:30~오후 10:00,오전 11:30~오후 10:00,오전 11:30~오후 10:00,오전 11:30~오후 10:00,오전 11:30~오후 10:00,4.6,13,,127.0708259,37.5460009,모서리에커피집.jpg
Comeno,카페,,오후 12:00~오전 12:00,오후 12:00~오전 12:00,오후 1:00~11:00,Closed,오후 1:00~11:00,오후 1:00~11:00,오후 1:00~11:00,4.3,11,,127.0668841,37.5455626,Comeno.jpg
까페에이치투,커피숍/커피 전문점,,,,,,,,,1.5,2,,127.0745234,37.5551566,까페에이치투.jpg
영화커피호프,커피숍/커피 전문점,,,,,,,,,5.0,2,,127.06948,37.5583645,영화커피호프.jpg
Bar Twelve @Cheongdam,바 & 그릴,,오후 8:00~오전 4:00,오후 7:30~오전 3:00,오후 7:30~오전 3:00,오후 7:30~오전 3:00,오후 7:30~오전 3:00,오후 7:30~오전 3:00,오후 8:00~오전 4:00,4.5,34,,127.0097459,37.5511748,Bar Twelve @Cheongdam.jpg
몰트바 오프 삼성동 (Malt Bar OFF),술집,,오후 7:00~오전 2:00,Closed,오후 7:00~오전 2:00,오후 7:00~오전 2:00,오후 7:00~오전 2:00,오후 7:00~오전 2:00,오후 7:00~오전 2:00,4.7,23,,127.0097459,37.5511748,몰트바 오프 삼성동 (Malt Bar OFF).jpg
뱅가,와인 바,,오후 6:00~오전 2:00,Closed,오후 6:00~오전 2:00,오후 6:00~오전 2:00,오후 6:00~오전 2:00,오후 6:00~오전 2:00,오후 6:00~오전 2:00,4.4,47,,127.0097459,37.5511748,뱅가.jpg
스쿠로,와인 바,,오후 6:00~오전 2:00,오후 6:00~오전 12:00,오후 6:00~오전 12:00,오후 6:00~오전 2:00,오후 6:00~오전 2:00,오후 6:00~오전 2:00,오후 6:00~오전 2:00,4.5,42,,127.0097459,37.5511748,스쿠로.jpg
최고노래방,노래방,,,,,,,,,,,,127.0640981,37.5464572,최고노래방.jpg
락휴노래연습장,노래방,,,,,,,,,4.0,2,,127.0668893,37.5419839,락휴노래연습장.jpg
SBS노래방,노래방,,,,,,,,,3.0,2,,127.0549302,37.5505426,SBS노래방.jpg
로또노래방,노래방,,,,,,,,,3.0,1,,127.0652925,37.5443194,로또노래방.jpg
알쏭노래방,노래방,,오후 1:00~오전 6:00,오후 1:00~오전 6:00,오후 5:00~오전 6:00,오후 5:00~오전 6:00,오후 5:00~오전 6:00,오후 5:00~오전 6:00,오후 5:00~오전 6:00,5.0,1,,127.0633786,37.541621,알쏭노래방.jpg
불티나노래방,노래방,,,,,,,,,,,,127.0468055,37.5434902,불티나노래방.jpg
DC노래방,노래방,,,,,,,,,,,,127.0662243,37.5421885,DC노래방.jpg
칸노래방,노래방,,,,,,,,,,,,127.0636446,37.5415222,칸노래방.jpg
팡팡노래방,노래방,,,,,,,,,,,,127.0658338,37.5412618,팡팡노래방.jpg
포그니노래방,노래방,,,,,,,,,,,,127.0549302,37.5505426,포그니노래방.jpg
사이버노래방,노래방,,,,,,,,,,,,127.0621953,37.5418172,사이버노래방.jpg
웰빙노래방,노래방,,,,,,,,,,,,127.0642229,37.5416506,웰빙노래방.jpg
대한민국노래방,노래방,,,,,,,,,,,,127.0650006,37.5409007,대한민국노래방.jpg
쟁반노래방,노래방,,,,,,,,,,,,127.0606076,37.5395204,쟁반노래방.jpg
뉴월드노래방,노래방,,,,,,,,,,,,127.0611954,37.5421227,뉴월드노래방.jpg
쟁반노래방,노래방,,,,,,,,,,,,127.065841,37.5413467,쟁반노래방.jpg
삼바노래방,노래방,,,,,,,,,,,,127.0549302,37.5505426,삼바노래방.jpg
쌍둥이노래방,노래방,,,,,,,,,,,,127.0639174,37.541595,쌍둥이노래방.jpg
NEW쟁반노래방,노래방,,,,,,,,,3.7,3,,127.0631845,37.5620182,NEW쟁반노래방.jpg
악어떼노래방,노래방,,,,,,,,,,,,127.0654632,37.540911,악어떼노래방.jpg
초밥짓는원숭이,일본 음식점,,오전 11:30~오후 3:30,오전 11:30~오후 3:30,오전 11:30~오후 3:30,오전 11:30~오후 3:30,오전 11:30~오후 3:30,오전 11:30~오후 3:30,오전 11:30~오후 3:30,3.2,21,,127.0695066,37.5431033,초밥짓는원숭이.jpg
와하카,음식점,,,,,,,,,4.2,73,,127.0368305,37.5478922,와하카.jpg
카페오롯,카페,,오전 11:00~오후 11:00,오전 11:00~오후 11:00,오전 10:00~오후 11:00,오전 10:00~오후 11:00,오전 10:00~오후 11:00,오전 10:00~오후 11:00,오전 10:00~오후 11:00,4.2,34,,127.0484837,37.54845,카페오롯.jpg
카페우유니,카페,,오전 10:00~오후 11:00,Closed,오전 10:00~오후 11:00,오전 10:00~오후 11:00,오전 10:00~오후 11:00,오전 10:00~오후 11:00,오전 10:00~오후 11:00,4.5,26,,127.0299956,37.5610174,카페우유니.jpg
오르에르(OrEr),카페,,오전 11:00~오후 11:00,오전 11:00~오후 11:00,오전 11:00~오후 11:00,오전 11:00~오후 11:00,오전 11:00~오후 11:00,오전 11:00~오후 11:00,오전 11:00~오후 11:00,4.0,124,,127.0337885,37.543431,오르에르(OrEr).jpg
카페나루,카페,,오전 8:00~오후 6:00,Closed,오전 8:00~오후 8:00,오전 8:00~오후 8:00,오전 8:00~오후 8:00,오전 8:00~오후 8:00,오전 8:00~오후 8:00,4.1,15,,127.072134,37.5505389,카페나루.jpg
타로카페드뷔시산장,카페,,오후 2:00~오전 1:00,오후 2:00~오전 1:00,오후 2:00~오전 1:00,오후 2:00~오전 1:00,오후 2:00~오전 1:00,오후 2:00~오전 1:00,오후 2:00~오전 1:00,4.4,18,,127.0229545,37.558454,타로카페드뷔시산장.jpg
카페보니또 성수점,카페,,오전 10:00~오후 10:00,오전 10:00~오후 10:00,오전 8:00~오전 12:00,오전 8:00~오전 12:00,오전 8:00~오전 12:00,오전 8:00~오전 12:00,오전 8:00~오전 12:00,4.0,12,,127.0384367,37.5413172,카페보니또 성수점.jpg
카페시벳,카페,,,,,,,,,4.5,18,,127.0220009,37.5616654,카페시벳.jpg
에잇디 카페,카페,,,,,,,,,4.5,4,,127.0188619,37.5244898,에잇디 카페.jpg
담쟁이북카페,카페,,,,,,,,,4.8,5,,127.072134,37.5505389,담쟁이북카페.jpg
MILD,카페,,오전 11:00~오후 9:30,오전 11:00~오후 9:30,오후 12:00~8:30,오후 12:00~8:30,오후 12:00~8:30,오후 12:00~8:30,오후 12:00~8:30,4.4,19,,127.0459459,37.5354365,MILD.jpg
카페 마리,커피숍/커피 전문점,,오후 12:00~9:00,오전 7:00~오후 9:00,오전 7:00~오후 9:00,오전 7:00~오후 9:00,오전 7:00~오후 9:00,오전 7:00~오후 9:00,오전 7:00~오후 9:00,4.4,5,,127.0131429,37.5250603,카페 마리.jpg
카페 레지던스,카페,,오후 12:00~9:00,오후 12:00~9:00,오후 12:00~9:00,오후 12:00~9:00,오후 12:00~9:00,오후 12:00~9:00,오후 12:00~9:00,3.5,2,,127.072134,37.5505389,카페 레지던스.jpg
원풀키즈카페,카페,,오전 10:00~오후 10:00,오전 10:00~오후 10:00,오전 10:00~오후 10:00,오전 10:00~오후 10:00,오전 10:00~오후 10:00,오전 10:00~오후 10:00,오전 10:00~오후 10:00,3.3,8,,127.072134,37.5505389,원풀키즈카페.jpg
카페 피아트,카페,,오전 9:00~오후 11:00,오전 9:00~오후 11:00,오전 9:00~오후 11:00,오전 9:00~오후 11:00,오전 9:00~오후 11:00,오전 9:00~오후 11:00,오전 9:00~오후 11:00,3.9,18,,127.072134,37.5505389,카페 피아트.jpg
Camel Café,카페,,오전 11:30~오후 10:00,오전 11:30~오후 10:00,오전 11:30~오후 10:00,오전 11:30~오후 10:00,오전 11:30~오후 10:00,오전 11:30~오후 10:00,오전 11:30~오후 10:00,3.9,55,,127.0383868,37.5371956,Camel Café.jpg
카페드유라,커피용품 판매점,,오전 9:00~오후 4:00,Closed,오전 9:00~오후 6:00,오전 9:00~오후 6:00,오전 9:00~오후 6:00,오전 9:00~오후 6:00,오전 9:00~오후 6:00,5.0,1,,127.0285199,37.5273389,카페드유라.jpg
소코 바 BAR SOKO,칵테일바,,오후 7:00~오전 2:00,Closed,오후 7:00~오전 2:00,오후 7:00~오전 2:00,오후 7:00~오전 2:00,오후 7:00~오전 2:00,오후 7:00~오전 2:00,4.4,26,,127.0051026,37.534872,소코 바 BAR SOKO.jpg
더블유바,와인 바,,,,,,,,,4.3,4,,127.019475,37.5504806,더블유바.jpg
불러노래방,노래방,,오후 2:00~오전 5:00,오후 2:00~오전 5:00,오후 2:00~오전 5:00,오후 2:00~오전 5:00,오후 2:00~오전 5:00,오후 2:00~오전 5:00,오후 2:00~오전 5:00,5.0,1,,127.0873258,37.5560008,불러노래방.jpg
엘리스노래방,노래방,,,,,,,,,2.0,1,,127.072134,37.5505389,엘리스노래방.jpg
NBA노래방,노래방,,,,,,,,,2.3,3,,127.072134,37.5505389,NBA노래방.jpg
성수문화복지회관,사회 복지 센터,,,,,,,,,4.4,13,,127.0425457,37.5454251,성수문화복지회관.jpg
한국문화센터,,,,,,,,,,,,,127.0630416,37.5388782,한국문화센터.jpg
메가박스 군자,,,,,,,,,,4.0,1,,127.0739777,37.5557163,메가박스 군자.jpg
가람성,중국 음식점,,Open 24 hours,Open 24 hours,Open 24 hours,Open 24 hours,Open 24 hours,Open 24 hours,Open 24 hours,3.8,21,,127.0752829,37.5452336,가람성.jpg
빕스 어린이대공원점,패밀리 레스토랑,,오전 11:30~오후 10:00,오전 11:30~오후 10:00,오전 11:30~오후 10:00,오전 11:30~오후 10:00,오전 11:30~오후 10:00,오전 11:30~오후 10:00,오전 11:30~오후 10:00,3.7,382,,127.0751642,37.5516355,빕스 어린이대공원점.jpg
하남돼지집 세종대점,한식 고기구이 레스토랑,,오전 12:00~오후 12:00,오전 12:00~오후 12:00,오전 12:00~오후 12:00,오전 12:00~오후 12:00,오전 12:00~오후 12:00,오전 12:00~오후 12:00,오전 12:00~오후 12:00,4.2,38,,127.0714333,37.5469414,하남돼지집 세종대점.jpg
카페 어드벤처 스튜디오,카페,,,,,,,,,3.0,2,,127.0681101,37.5505436,카페 어드벤처 스튜디오.jpg
언커먼그라운드,커피숍/커피 전문점,,오후 12:00~7:00,오후 12:00~7:00,오전 8:00~오후 10:00,오전 8:00~오후 10:00,오전 8:00~오후 10:00,오전 8:00~오후 10:00,오전 8:00~오후 10:00,3.9,35,,127.0552083,37.543451,언커먼그라운드.jpg
kingdombar Sm Bar,칵테일바,,오후 8:00~오전 2:00,오후 8:00~오전 2:00,오후 8:00~오전 2:00,오후 8:00~오전 2:00,오후 8:00~오전 2:00,오후 8:00~오전 2:00,오후 8:00~오전 2:00,4.3,3,,127.0796402,37.5375863,kingdombar Sm Bar.jpg
Bar Lupin,바 & 그릴,,,,,,,,,4.0,22,,127.036382,37.5263762,Bar Lupin.jpg
바푸리 성수역점,음식점,,오전 7:30~오후 9:30,Closed,오전 7:30~오후 9:30,오전 7:30~오후 9:30,오전 7:30~오후 9:30,오전 7:30~오후 9:30,오전 7:30~오후 9:30,4.2,6,,127.0530532,37.5459424,바푸리 성수역점.jpg
레솔베르시가바,시가 전문점,,오후 12:00~오전 3:00,오후 12:00~오전 12:00,오후 12:00~오전 3:00,오후 12:00~오전 3:00,오후 12:00~오전 3:00,오후 12:00~오전 3:00,오후 12:00~오전 3:00,4.6,40,,127.0366052,37.5246742,레솔베르시가바.jpg
몽크투바흐,재즈바,,오후 7:00~오전 2:00,오후 7:00~오전 2:00,오후 7:00~오전 2:00,오후 7:00~오전 2:00,오후 7:00~오전 2:00,오후 7:00~오전 2:00,오후 7:00~오전 2:00,4.5,35,,127.0228984,37.5211724,몽크투바흐.jpg
부킹노래방,노래방,,,,,,,,,,,,127.0661451,37.5391509,부킹노래방.jpg
국립현대미술관 서울관,미술관,,오전 10:00~오후 9:00,오전 10:00~오후 6:00,오전 10:00~오후 6:00,오전 10:00~오후 6:00,오전 10:00~오후 6:00,오전 10:00~오후 6:00,오전 10:00~오후 9:00,4.4,"1,375",,126.9628596,37.5794091,국립현대미술관 서울관.jpg
대림미술관,미술관,,오전 10:00~오후 8:00,오전 10:00~오후 6:00,Closed,오전 10:00~오후 6:00,오전 10:00~오후 6:00,오전 10:00~오후 8:00,오전 10:00~오후 6:00,4.2,876,,126.9558315,37.577459,대림미술관.jpg
삼성리움미술관,미술관,,오전 10:30~오후 6:00,오전 10:30~오후 6:00,Closed,오전 10:30~오후 6:00,오전 10:30~오후 6:00,오전 10:30~오후 6:00,오전 10:30~오후 6:00,4.4,862,,126.9810695,37.538122,삼성리움미술관.jpg
D Museum,미술관,,오전 10:00~오후 8:00,오전 10:00~오후 6:00,Closed,오전 10:00~오후 6:00,오전 10:00~오후 6:00,오전 10:00~오후 6:00,오전 10:00~오후 8:00,4.1,"1,086",,126.9939275,37.5371914,D Museum.jpg
소마미술관,미술관,,오전 10:00~오후 6:00,오전 10:00~오후 6:00,Closed,오전 10:00~오후 6:00,오전 10:00~오후 6:00,오전 10:00~오후 6:00,오전 10:00~오후 6:00,4.0,285,,127.1007442,37.5166362,소마미술관.jpg
국립현대미술관 덕수궁관,현대미술관,,오전 10:00~오후 9:00,오전 10:00~오후 7:00,Closed,오전 10:00~오후 7:00,오전 10:00~오후 9:00,오전 10:00~오후 7:00,오전 10:00~오후 7:00,4.4,259,,126.9561827,37.5658959,국립현대미술관 덕수궁관.jpg
서울시립미술관 서소문본관,미술관,,오전 10:00~오후 6:00,오전 10:00~오후 6:00,Closed,오전 10:00~오후 7:00,오전 10:00~오후 7:00,오전 10:00~오후 7:00,오전 10:00~오후 7:00,4.3,832,,126.9562698,37.5640253,서울시립미술관 서소문본관.jpg
아르코미술관,미술관,,오전 11:00~오후 6:00,오전 11:00~오후 6:00,Closed,오전 11:00~오후 6:00,오전 11:00~오후 6:00,오전 11:00~오후 6:00,오전 11:00~오후 6:00,4.4,44,,126.9856794,37.5804502,아르코미술관.jpg
서울시립미술관 경희궁미술관,미술관,,오전 10:00~오후 8:00,오전 10:00~오후 8:00,오전 10:00~오후 8:00,오전 10:00~오후 8:00,오전 10:00~오후 8:00,오전 10:00~오후 8:00,오전 10:00~오후 8:00,3.0,4,,126.9512047,37.5700964,서울시립미술관 경희궁미술관.jpg
포스코미술관,미술관,,,,,,,,,3.9,61,,127.0386377,37.5058037,포스코미술관.jpg
K현대미술관,미술관,,오전 10:00~오후 8:00,오전 10:00~오후 6:30,Closed,오전 10:00~오후 8:00,오전 10:00~오후 8:00,오전 10:00~오후 8:00,오전 10:00~오후 8:00,3.9,151,,127.0215448,37.5242737,K현대미술관.jpg
간송미술관,미술관,,오전 10:00~오후 6:00,오전 10:00~오후 6:00,오전 10:00~오후 6:00,오전 10:00~오후 6:00,오전 10:00~오후 6:00,오전 10:00~오후 6:00,오전 10:00~오후 6:00,4.0,25,,126.9793463,37.5936152,간송미술관.jpg
서울미술관,미술관,,오전 10:00~오후 6:00,오전 10:00~오후 6:00,Closed,오전 10:00~오후 6:00,오전 10:00~오후 6:00,오전 10:00~오후 6:00,오전 10:00~오후 6:00,4.1,798,,126.9457404,37.5948345,서울미술관.jpg
국립현대미술관,미술관,,오전 10:00~오후 9:00,오전 10:00~오후 6:00,Closed,오전 10:00~오후 6:00,오전 10:00~오후 6:00,오전 10:00~오후 6:00,오전 10:00~오후 6:00,4.3,762,,127.0020942,37.4303743,국립현대미술관.jpg
일민미술관,미술관,,오전 11:00~오후 7:00,오전 11:00~오후 7:00,Closed,오전 11:00~오후 7:00,오전 11:00~오후 7:00,오전 11:00~오후 7:00,오전 11:00~오후 7:00,3.9,95,,126.9601545,37.569784,일민미술관.jpg
국립현대미술관 창동레지던시,미술관,,오전 10:00~오후 6:00,오전 10:00~오후 6:00,오전 10:00~오후 6:00,오전 10:00~오후 6:00,오전 10:00~오후 6:00,오전 10:00~오후 6:00,오전 10:00~오후 6:00,4.0,9,,127.0218964,37.6406935,국립현대미술관 창동레지던시.jpg
한미사진미술관,미술관,,오전 11:00~오후 6:30,Closed,오전 10:00~오후 7:00,오전 10:00~오후 7:00,오전 10:00~오후 7:00,오전 10:00~오후 7:00,오전 10:00~오후 7:00,4.2,22,,127.0964485,37.516571,한미사진미술관.jpg
성곡미술관,미술관,,오전 10:00~오후 6:00,오전 10:00~오후 6:00,Closed,오전 10:00~오후 6:00,오전 10:00~오후 6:00,오전 10:00~오후 6:00,오전 10:00~오후 6:00,4.1,79,,126.9522548,37.5731157,성곡미술관.jpg
성북구립미술관,미술관,,,,,,,,,,,,127.0324413,37.603604,성북구립미술관.jpg
예술의전당 한가람미술관,미술관,,오전 11:00~오후 8:00,오전 11:00~오후 8:00,오전 11:00~오후 8:00,오전 11:00~오후 8:00,오전 11:00~오후 8:00,오전 11:00~오후 8:00,오전 11:00~오후 8:00,4.3,"1,422",,126.9967367,37.4803793,예술의전당 한가람미술관.jpg
에어텔24 여행사,여행사,,오전 12:00~오후 11:30,오전 12:00~오후 11:30,오전 12:00~오후 11:30,오전 12:00~오후 11:30,오전 12:00~오후 11:30,오전 12:00~오후 11:30,오전 12:00~오후 11:30,5.0,1,,126.992038,37.5036322,에어텔24 여행사.jpg
유강원(순명효황후의 릉)문화유적,역사적 명소,,,,,,,,,2.0,1,,127.0643031,37.549363,유강원(순명효황후의 릉)문화유적.jpg
살곶이다리,역사적 명소,,Open 24 hours,Open 24 hours,Open 24 hours,Open 24 hours,Open 24 hours,Open 24 hours,Open 24 hours,4.0,118,,127.0214313,37.5360063,살곶이다리.jpg
아차산성,역사적 명소,,,,,,,,,4.2,86,,127.0854302,37.5544541,아차산성.jpg
광화문,역사적 명소,,오전 8:00~오후 5:00,오전 8:00~오후 5:00,오전 8:00~오후 5:00,오전 8:00~오후 5:00,오전 8:00~오후 5:00,오전 8:00~오후 5:00,오전 8:00~오후 5:00,4.5,"4,150",,126.9593062,37.5759369,광화문.jpg
풍납토성,역사적 명소,,Open 24 hours,Open 24 hours,Open 24 hours,Open 24 hours,Open 24 hours,Open 24 hours,Open 24 hours,3.8,30,,127.1034372,37.5390793,풍납토성.jpg
장충단비,역사적 명소,,,,,,,,,,,,126.9866244,37.5575642,장충단비.jpg
숭례문,역사적 명소,,오전 9:00~오후 6:00,오전 9:00~오후 6:00,Closed,오전 9:00~오후 6:00,오전 9:00~오후 6:00,오전 9:00~오후 6:00,오전 9:00~오후 6:00,4.3,"2,661",,126.9577925,37.5599526,숭례문.jpg
남한산성 북문,역사적 명소,,,,,,,,,4.1,276,,127.1672906,37.481568,남한산성 북문.jpg
광평대군묘,역사적 명소,,,,,,,,,3.4,9,,127.0746175,37.486769,광평대군묘.jpg
아차산4보루,역사적 명소,,Open 24 hours,Open 24 hours,Open 24 hours,Open 24 hours,Open 24 hours,Open 24 hours,Open 24 hours,3.0,3,,127.0867368,37.5711395,아차산4보루.jpg
서울문묘,역사적 명소,,,,,,,,,4.8,4,,126.9785776,37.5858494,서울문묘.jpg
동대문,역사적 명소,,,,,,,,,4.1,"1,080",,126.9920357,37.5711389,동대문.jpg
우정총국,역사적 명소,,오전 9:00~오후 5:00,오전 9:00~오후 5:00,오전 9:00~오후 5:00,오전 9:00~오후 5:00,오전 9:00~오후 5:00,오전 9:00~오후 5:00,오전 9:00~오후 5:00,4.0,8,,126.9651532,37.5743555,우정총국.jpg
압구정터,역사적 명소,,,,,,,,,,,,127.0214313,37.5360063,압구정터.jpg
청풍김씨 대종회,역사적 명소,,,,,,,,,,,,127.0139346,37.5748283,청풍김씨 대종회.jpg
동구릉 재실,역사적 명소,,,,,,,,,4.4,15,,127.11688,37.6186227,동구릉 재실.jpg
광통교,역사적 명소,,Open 24 hours,Open 24 hours,Open 24 hours,Open 24 hours,Open 24 hours,Open 24 hours,Open 24 hours,4.6,13,,126.963655,37.5691135,광통교.jpg
월계동각심재,역사적 명소,,Open 24 hours,Open 24 hours,Open 24 hours,Open 24 hours,Open 24 hours,Open 24 hours,Open 24 hours,3.0,3,,127.0332285,37.633944,월계동각심재.jpg
목릉,역사적 명소,,,,,,,,,4.0,10,,127.1156626,37.6256571,목릉.jpg
서울어린이대공원놀이동산,테마파크,,오전 10:00~오후 9:00,오전 10:00~오후 9:00,오전 10:00~오후 7:00,오전 10:00~오후 7:00,오전 10:00~오후 7:00,오전 10:00~오후 7:00,오전 10:00~오후 7:00,4.3,950,,127.0488321,37.5506984,서울어린이대공원놀이동산.jpg
서울랜드,놀이공원,,오전 9:30~오후 10:00,오전 9:30~오후 10:00,오전 9:30~오후 10:00,오전 9:30~오후 10:00,오전 9:30~오후 10:00,오전 9:30~오후 10:00,오전 9:30~오후 10:00,4.2,"3,186",,126.9851078,37.4341563,서울랜드.jpg
어린이대공원,테마파크,,오전 5:00~오후 10:00,오전 5:00~오후 10:00,오전 5:00~오후 10:00,오전 5:00~오후 10:00,오전 5:00~오후 10:00,오전 5:00~오후 10:00,오전 5:00~오후 10:00,4.4,"3,034",,127.0458185,37.5482248,어린이대공원.jpg
삼성에버랜드(주),놀이공원,,,,,,,,,4.4,7,,126.9947057,37.4923535,삼성에버랜드(주).jpg
롯데월드 매직아일랜드,놀이공원,,오전 9:30~오후 10:00,오전 9:30~오후 10:00,오전 9:30~오후 10:00,오전 9:30~오후 10:00,오전 9:30~오후 10:00,오전 9:30~오후 10:00,오전 9:30~오후 10:00,4.3,"2,709",,127.064939,37.5088728,롯데월드 매직아일랜드.jpg
두리랜드,놀이공원,,오전 10:00~오후 7:00,오전 10:00~오후 7:00,Closed,오전 10:00~오후 5:00,오전 10:00~오후 5:00,오전 10:00~오후 5:00,오전 10:00~오후 5:00,3.9,71,,126.91541,37.7246681,두리랜드.jpg
문래공원관리사무소,놀이공원,,Closed,Closed,오전 9:00~오후 6:00,오전 9:00~오후 6:00,오전 9:00~오후 6:00,오전 9:00~오후 6:00,오전 9:00~오후 6:00,,,,126.8602701,37.5176033,문래공원관리사무소.jpg
국립공원관리공단빨래골,놀이공원,,,,,,,,,3.0,2,,126.9675451,37.6792182,국립공원관리공단빨래골.jpg
Running Man Ep 1,놀이공원,,,,,,,,,5.0,2,,126.9550913,37.5782,Running Man Ep 1.jpg
월미테마파크,놀이공원,,오전 10:00~오후 10:30,오전 10:00~오후 10:30,오전 10:00~오후 10:00,오전 10:00~오후 10:00,오전 10:00~오후 10:00,오전 10:00~오후 10:00,오전 10:00~오후 10:00,3.8,"1,113",,126.5612681,37.471318,월미테마파크.jpg
원더존,놀이공원,,,,,,,,,3.0,6,,126.7673075,37.5038035,원더존.jpg
남한산성유원지관리사무실,놀이공원,,,,,,,,,4.3,16,,127.1442749,37.4729638,남한산성유원지관리사무실.jpg
테지움 서울,테마파크,,오전 8:30~오후 6:00,오전 8:30~오후 6:00,오전 8:30~오후 6:00,오전 8:30~오후 6:00,오전 8:30~오후 6:00,오전 8:30~오후 6:00,오전 8:30~오후 6:00,4.1,214,,126.9550913,37.5782,테지움 서울.jpg
롯데월드 언더씨킹덤,놀이공원,,오전 10:00~오후 9:00,오전 10:00~오후 9:00,오전 10:00~오후 9:00,오전 10:00~오후 9:00,오전 10:00~오후 9:00,오전 10:00~오후 9:00,오전 10:00~오후 9:00,3.8,103,,126.8830636,37.6376234,롯데월드 언더씨킹덤.jpg
풍무동 중앙공원 공룡놀이터,놀이공원,,Open 24 hours,Open 24 hours,Open 24 hours,Open 24 hours,Open 24 hours,Open 24 hours,Open 24 hours,1.0,1,,126.6909869,37.6036421,풍무동 중앙공원 공룡놀이터.jpg
하니랜드,놀이공원,,오전 10:00~오후 5:30,오전 10:00~오후 5:30,오전 10:00~오후 5:30,오전 10:00~오후 5:30,오전 10:00~오후 5:30,오전 10:00~오후 5:30,오전 10:00~오후 5:30,3.7,153,,126.7981818,37.749982,하니랜드.jpg
물동네,놀이공원,,,,,,,,,2.3,4,,127.2777366,37.719324,물동네.jpg
롯데월드,테마파크,,오전 9:30~오후 11:00,Closed,오전 9:30~오후 10:00,오전 9:30~오후 10:00,오전 9:30~오후 10:00,오전 9:30~오후 10:00,오전 9:30~오후 11:00,4.2,"13,355",,127.0631481,37.5111158,롯데월드.jpg
에버랜드,놀이공원,,오전 10:00~오후 10:00,오전 10:00~오후 9:00,오전 10:00~오후 9:00,오전 10:00~오후 9:00,오전 10:00~오후 9:00,오전 10:00~오후 9:00,오전 10:00~오후 10:00,4.4,"16,677",,127.1675475,37.2939104,에버랜드.jpg
일신놀이공원,놀이공원,,Open 24 hours,Open 24 hours,Open 24 hours,Open 24 hours,Open 24 hours,Open 24 hours,Open 24 hours,5.0,1,,126.7073008,37.482593,일신놀이공원.jpg
성삼공원,공원,,,,,,,,,3.9,7,,127.0590901,37.5420115,성삼공원.jpg
환경공원,공원,,,,,,,,,,,,127.0802988,37.5519278,환경공원.jpg
맨발공원,공원,,,,,,,,,,,,127.0810532,37.5508016,맨발공원.jpg
뚝섬체육공원,공원,,,,,,,,,3.8,24,,127.0405181,37.5496009,뚝섬체육공원.jpg
미나리공원,공원,,,,,,,,,3.6,5,,127.0670054,37.5636757,미나리공원.jpg
상원어린이공원,공원,,,,,,,,,4.0,2,,127.046119,37.5475661,상원어린이공원.jpg
열린무대,공원,,,,,,,,,,,,127.0768934,37.5488553,열린무대.jpg
마장상상어린이공원,공원,,Open 24 hours,Open 24 hours,Open 24 hours,Open 24 hours,Open 24 hours,Open 24 hours,Open 24 hours,2.7,3,,127.0402858,37.5621198,마장상상어린이공원.jpg

